{"type":"FeatureCollection","features":[{"type":"Feature","geometry":{"type":"Point","coordinates":[78.411027193,17.482600678]},"properties":{"file":"https://commons.wikimedia.org/entity/M179362917","image":"http://commons.wikimedia.org/wiki/Special:FilePath/Streets%20in%20Kukatpally%20Hyderabad%2C%20Dec%202025.jpg","filename":"File:Streets_in_Kukatpally_Hyderabad,_Dec_2025.jpg"}},{"type":"Feature","geometry":{"type":"Point","coordinates":[78.396926904,17.496067985]},"properties":{"file":"https://commons.wikimedia.org/entity/M179433556","image":"http://commons.wikimedia.org/wiki/Special:FilePath/KPHB%20Metro%20Station%20towards%20Kukatpally-Moosapet%2C%20From%20JNTU%20Bus%20Stand%2C%20Pillar%20728%2C%20Dec%202025.jpg","filename":"File:KPHB_Metro_Station_towards_Kukatpally-Moosapet,_From_JNTU_Bus_Stand,_Pillar_728,_Dec_2025.jpg"}},{"type":"Feature","geometry":{"type":"Point","coordinates":[78.40118775,17.49428865]},"properties":{"file":"https://commons.wikimedia.org/entity/M179608411","image":"http://commons.wikimedia.org/wiki/Special:FilePath/View%20of%20Allwyn%20Colony%20Road%2C%20KPHB%20Bus%20Station-Metro%20Station%2C%20Dec%202025.jpg","filename":"File:View_of_Allwyn_Colony_Road,_KPHB_Bus_Station-Metro_Station,_Dec_2025.jpg"}},{"type":"Feature","geometry":{"type":"Point","coordinates":[78.479362073,17.38587075]},"properties":{"file":"https://commons.wikimedia.org/entity/M179608690","image":"http://commons.wikimedia.org/wiki/Special:FilePath/View%20of%20Gunav%20Enterprises%2C%20Koti%2C%20Old%20Style%20Building%2C%20Dec%202025.jpg","filename":"File:View_of_Gunav_Enterprises,_Koti,_Old_Style_Building,_Dec_2025.jpg"}},{"type":"Feature","geometry":{"type":"Point","coordinates":[78.484100126,17.384408538]},"properties":{"file":"https://commons.wikimedia.org/entity/M179608996","image":"http://commons.wikimedia.org/wiki/Special:FilePath/View%20around%20Sultan%20Bazar%20Metro%20Station%2C%20Dec%202025.jpg","filename":"File:View_around_Sultan_Bazar_Metro_Station,_Dec_2025.jpg"}},{"type":"Feature","geometry":{"type":"Point","coordinates":[78.475922328,17.394245971]},"properties":{"file":"https://commons.wikimedia.org/entity/M179638007","image":"http://commons.wikimedia.org/wiki/Special:FilePath/Gunfoundry%20Street%20Number%203%2C%20Abids%20Road%2C%20Hyderabad%2C%20Dec%202025.jpg","filename":"File:Gunfoundry_Street_Number_3,_Abids_Road,_Hyderabad,_Dec_2025.jpg"}},{"type":"Feature","geometry":{"type":"Point","coordinates":[78.343615538,17.412021151]},"properties":{"file":"https://commons.wikimedia.org/entity/M180049904","image":"http://commons.wikimedia.org/wiki/Special:FilePath/Social%20Inequality%20Portrait%2C%20Financial%20District%2C%20Dec%202025.jpg","filename":"File:Social_Inequality_Portrait,_Financial_District,_Dec_2025.jpg"}},{"type":"Feature","geometry":{"type":"Point","coordinates":[78.50273,17.433911]},"properties":{"file":"https://commons.wikimedia.org/entity/M180681761","image":"http://commons.wikimedia.org/wiki/Special:FilePath/360%20at%20Secunderabad%20Station%2C%20Platform%201%2C%20Dec%202025.jpg","filename":"File:360_at_Secunderabad_Station,_Platform_1,_Dec_2025.jpg"}},{"type":"Feature","geometry":{"type":"Point","coordinates":[78.46755363,17.392551221]},"properties":{"file":"https://commons.wikimedia.org/entity/M177620913","image":"http://commons.wikimedia.org/wiki/Special:FilePath/MMTS%2C%20trains%2C%20Nampally%2C%20Hyderabad%20Railway%20Station%2C%20Oct%202025.jpg","filename":"File:MMTS,_trains,_Nampally,_Hyderabad_Railway_Station,_Oct_2025.jpg"}},{"type":"Feature","geometry":{"type":"Point","coordinates":[79.667546443,18.650632766]},"properties":{"file":"https://commons.wikimedia.org/entity/M177683786","image":"http://commons.wikimedia.org/wiki/Special:FilePath/View%20from%20main%20Ambedkar%20Chowk%20of%20Gandhi%20Statue%20from%20Mee%20Seva%20Centre%2C%20Feb%202022.jpg","filename":"File:View_from_main_Ambedkar_Chowk_of_Gandhi_Statue_from_Mee_Seva_Centre,_Feb_2022.jpg"}},{"type":"Feature","geometry":{"type":"Point","coordinates":[78.375448744,17.491621504]},"properties":{"file":"https://commons.wikimedia.org/entity/M177714793","image":"http://commons.wikimedia.org/wiki/Special:FilePath/View%20of%20Gokul%20Plots%2C%20KPHB%209th%20Phase%20from%20calvery%20temple%20road%2C%20Nov%202025.jpg","filename":"File:View_of_Gokul_Plots,_KPHB_9th_Phase_from_calvery_temple_road,_Nov_2025.jpg"}},{"type":"Feature","geometry":{"type":"Point","coordinates":[78.39278249,17.486601064]},"properties":{"file":"https://commons.wikimedia.org/entity/M177777754","image":"http://commons.wikimedia.org/wiki/Special:FilePath/Ramya%20Grounds%2C%20KPHB%205th%20phase%2C%20Aug%202025.jpg","filename":"File:Ramya_Grounds,_KPHB_5th_phase,_Aug_2025.jpg"}},{"type":"Feature","geometry":{"type":"Point","coordinates":[78.459166096,19.439284458]},"properties":{"file":"https://commons.wikimedia.org/entity/M177778126","image":"http://commons.wikimedia.org/wiki/Special:FilePath/Ichoda-Echoda%20Bus%20Station%2C%20TGSRTC-TSRTC%2C%20Aug%202025.jpg","filename":"File:Ichoda-Echoda_Bus_Station,_TGSRTC-TSRTC,_Aug_2025.jpg"}},{"type":"Feature","geometry":{"type":"Point","coordinates":[78.397771736,17.495205804]},"properties":{"file":"https://commons.wikimedia.org/entity/M177886993","image":"http://commons.wikimedia.org/wiki/Special:FilePath/KPHB%20Street%20Market%2C%20Kukatpally%2C%20JNTU%2C%20Oct%202025.jpg","filename":"File:KPHB_Street_Market,_Kukatpally,_JNTU,_Oct_2025.jpg"}},{"type":"Feature","geometry":{"type":"Point","coordinates":[78.39797065,17.462943867]},"properties":{"file":"https://commons.wikimedia.org/entity/M177934486","image":"http://commons.wikimedia.org/wiki/Special:FilePath/Under%20the%20Kaithalapur%20Flyover%20towards%20KPHB%20Road%2C%20from%20Mar%202023.jpg","filename":"File:Under_the_Kaithalapur_Flyover_towards_KPHB_Road,_from_Mar_2023.jpg"}},{"type":"Feature","geometry":{"type":"Point","coordinates":[78.394965216,17.489465578]},"properties":{"file":"https://commons.wikimedia.org/entity/M178334935","image":"http://commons.wikimedia.org/wiki/Special:FilePath/Near%20Avenue%20Hospital%2C%20KPHB%2C%20Nov%202025.jpg","filename":"File:Near_Avenue_Hospital,_KPHB,_Nov_2025.jpg"}},{"type":"Feature","geometry":{"type":"Point","coordinates":[78.343675315,17.412084797]},"properties":{"file":"https://commons.wikimedia.org/entity/M178452532","image":"http://commons.wikimedia.org/wiki/Special:FilePath/View%20of%20Kalyani%20Tech%20Park%20and%20greens%20in%20Puppalaguda%2C%20Financial%20District%2C%20Nov%202025.jpg","filename":"File:View_of_Kalyani_Tech_Park_and_greens_in_Puppalaguda,_Financial_District,_Nov_2025.jpg"}},{"type":"Feature","geometry":{"type":"Point","coordinates":[78.458390681,17.932150157]},"properties":{"file":"https://commons.wikimedia.org/entity/M178554660","image":"http://commons.wikimedia.org/wiki/Special:FilePath/Toopran%20Nov%202025.jpg","filename":"File:Toopran_Nov_2025.jpg"}},{"type":"Feature","geometry":{"type":"Point","coordinates":[78.390056406,17.484468192]},"properties":{"file":"https://commons.wikimedia.org/entity/M178821083","image":"http://commons.wikimedia.org/wiki/Special:FilePath/Under%20the%20flyover%2C%20Nexus%20%28Forum%29%20Junction%2C%20KPHB%2C%20Nov%202025.jpg","filename":"File:Under_the_flyover,_Nexus_(Forum)_Junction,_KPHB,_Nov_2025.jpg"}},{"type":"Feature","geometry":{"type":"Point","coordinates":[78.390007019,17.484546123]},"properties":{"file":"https://commons.wikimedia.org/entity/M178821106","image":"http://commons.wikimedia.org/wiki/Special:FilePath/360%20degree%20view%2C%20Nexus%20%28Forum%29%20Junction%2C%20KPHB%20Nov%202025.jpg","filename":"File:360_degree_view,_Nexus_(Forum)_Junction,_KPHB_Nov_2025.jpg"}},{"type":"Feature","geometry":{"type":"Point","coordinates":[78.389402773,17.488322754]},"properties":{"file":"https://commons.wikimedia.org/entity/M178822061","image":"http://commons.wikimedia.org/wiki/Special:FilePath/Vijetha%20Line%2C%20KPHB%206th%20phase%2C%20Nov%202025.jpg","filename":"File:Vijetha_Line,_KPHB_6th_phase,_Nov_2025.jpg"}},{"type":"Feature","geometry":{"type":"Point","coordinates":[78.3948115,17.496409917]},"properties":{"file":"https://commons.wikimedia.org/entity/M178824058","image":"http://commons.wikimedia.org/wiki/Special:FilePath/JNTU%20Junction%2C%20Nov%202025.jpg","filename":"File:JNTU_Junction,_Nov_2025.jpg"}},{"type":"Feature","geometry":{"type":"Point","coordinates":[78.356280588,17.41910557]},"properties":{"file":"https://commons.wikimedia.org/entity/M178942661","image":"http://commons.wikimedia.org/wiki/Special:FilePath/View%20of%20service%20road%20junction%20towards%20Nanakramguda%2C%20November%202025.jpg","filename":"File:View_of_service_road_junction_towards_Nanakramguda,_November_2025.jpg"}}]}